[
  {
    "name": "(1-5)",
    "rating": "開店時間",
    "hours": "公休時間",
    "row": 2
  },
  {
    "name": "醬油膏",
    "rating": "服務態度",
    "hours": "本站食記",
    "row": 3
  },
  {
    "name": "[評論主觀僅供參考隨時可能應情況更動，每個人心中都有一碗屬於自己的牛肉湯]",
    "rating": "備註 [認同請來 我要征服臺南牛肉湯!!! 按讚~]",
    "hours": "地址(全地圖)",
    "row": 4
  },
  {
    "name": "時間",
    "rating": "創店",
    "hours": "緯度",
    "row": 5
  },
  {
    "name": "六千牛肉湯",
    "rating": "(?)5",
    "hours": "05:00-8:30(估計)",
    "row": 6
  },
  {
    "name": "賣完為止",
    "rating": "週二",
    "hours": "",
    "row": 7
  },
  {
    "name": "週四",
    "rating": "超濃郁",
    "hours": "",
    "row": 9
  },
  {
    "name": "湯頭",
    "rating": "好",
    "hours": "",
    "row": 10
  },
  {
    "name": "別燙太久",
    "rating": "貴(120)",
    "hours": "",
    "row": 11
  },
  {
    "name": "牛肉很多",
    "rating": "不錯",
    "hours": "",
    "row": 12
  },
  {
    "name": "偏乾",
    "rating": "無",
    "hours": "普通",
    "row": 13
  },
  {
    "name": "加湯是缺德的行為XD",
    "rating": "700台灣台南市中西區海安路一段63號",
    "hours": "06-2227603",
    "row": 16
  },
  {
    "name": "阿鳳牛肉湯",
    "rating": "(?)3.5",
    "hours": "07:00-13:00",
    "row": 17
  },
  {
    "name": "0912007725",
    "rating": "",
    "hours": "",
    "row": 18
  },
  {
    "name": "源枝牛肉湯",
    "rating": "(?)3",
    "hours": "05:30-19:30",
    "row": 19
  },
  {
    "name": "可肉量很多",
    "rating": "上肉80",
    "hours": "",
    "row": 20
  },
  {
    "name": "100附肉燥飯",
    "rating": "普通",
    "hours": "好吃",
    "row": 24
  },
  {
    "name": "總之，阿枝現在不在這裡",
    "rating": "704台灣台南市北區成功路626號",
    "hours": "06-3588832",
    "row": 26
  },
  {
    "name": "幸福牛肉湯",
    "rating": "(?)3",
    "hours": "04:00-14:00",
    "row": 27
  },
  {
    "name": "綜合",
    "rating": "80",
    "hours": "普通",
    "row": 30
  },
  {
    "name": "賴網友推薦:裡面的肉燥是加牛筋跟高湯下去煮的喔-!!",
    "rating": "台南市東區崇德四街6號",
    "hours": "06-2895-743",
    "row": 33
  },
  {
    "name": "阿明牛肉湯",
    "rating": "(?)3",
    "hours": "",
    "row": 34
  },
  {
    "name": "補頭牛肉湯(永康)",
    "rating": "4.5",
    "hours": "16:00-",
    "row": 35
  },
  {
    "name": "200",
    "rating": "普通",
    "hours": "只有一點點甜",
    "row": 36
  },
  {
    "name": "炒青菜大盤",
    "rating": "提供自助香菜",
    "hours": "710台灣台南市永康區中正北路253號",
    "row": 37
  },
  {
    "name": "六甲牛肉湯(村長)",
    "rating": "4.5",
    "hours": "05:00-13:30",
    "row": 38
  },
  {
    "name": "林豪鏘詩人:現在肉燥飯不是吃到飽了。",
    "rating": "711台灣台南市歸仁區中正南路一段997號",
    "hours": "06-2300411",
    "row": 39
  },
  {
    "name": "06-2302906",
    "rating": "大",
    "hours": "方便",
    "row": 40
  },
  {
    "name": "善化陳家牛肉(南區)",
    "rating": "4.5",
    "hours": "5:30-13:00",
    "row": 41
  },
  {
    "name": "http://www.yufulin.net/2013/01/blog-post_4.html",
    "rating": "台南市南區灣裡路209號",
    "hours": "0972-008-805",
    "row": 42
  },
  {
    "name": "06-262-9717",
    "rating": "小",
    "hours": "普通",
    "row": 43
  },
  {
    "name": "阿安牛肉湯(新光三越台南新天地)",
    "rating": "4",
    "hours": "11:00-22:00",
    "row": 44
  },
  {
    "name": "阿安牛肉湯(中華北路總店)",
    "rating": "4",
    "hours": "24HR",
    "row": 45
  },
  {
    "name": "週二09:00",
    "rating": "中藥清甜湯頭",
    "hours": "好",
    "row": 47
  },
  {
    "name": "飯吃到飽",
    "rating": "很好",
    "hours": "免費吃到飽",
    "row": 48
  },
  {
    "name": "肥肉超多",
    "rating": "味道較重",
    "hours": "好",
    "row": 49
  },
  {
    "name": "阿寶牛肉湯",
    "rating": "4",
    "hours": "05:00-11:00",
    "row": 50
  },
  {
    "name": "17:00-23:00",
    "rating": "週二",
    "hours": "特殊風味的大骨牛腩湯頭",
    "row": 51
  },
  {
    "name": "阿超牛肉湯",
    "rating": "4",
    "hours": "11:00-02:00",
    "row": 52
  },
  {
    "name": "阿銘牛肉湯",
    "rating": "4",
    "hours": "10:00-22:00",
    "row": 53
  },
  {
    "name": "小六千",
    "rating": "普通",
    "hours": "",
    "row": 54
  },
  {
    "name": "量少",
    "rating": "肥肉多好吃",
    "hours": "",
    "row": 56
  },
  {
    "name": "飯量少",
    "rating": "普通",
    "hours": "好",
    "row": 57
  },
  {
    "name": "與品牛、順福、順德為兄弟姊妹",
    "rating": "710台灣台南市永康區永中街42號",
    "hours": "06-2326657",
    "row": 60
  },
  {
    "name": "(永大路)",
    "rating": "",
    "hours": "下午 3:30:00",
    "row": 61
  },
  {
    "name": "阿牛仔牛肉湯(總店)",
    "rating": "4",
    "hours": "06:00-14:00",
    "row": 62
  },
  {
    "name": "近永慶",
    "rating": "不錯",
    "hours": "70",
    "row": 63
  },
  {
    "name": "附肉燥飯",
    "rating": "普通",
    "hours": "偏甜、肥肉",
    "row": 65
  },
  {
    "name": "阿榮牛肉湯(永康)",
    "rating": "4",
    "hours": "05:00-14:00",
    "row": 66
  },
  {
    "name": "阿裕牛肉湯(阿裕現宰牛肉火鍋)",
    "rating": "4",
    "hours": "07:30-14:00 17:00-00:00",
    "row": 67
  },
  {
    "name": "17:00",
    "rating": "綠色湯頭",
    "hours": "",
    "row": 71
  },
  {
    "name": "薑絲",
    "rating": "極好",
    "hours": "100",
    "row": 72
  },
  {
    "name": "附白飯",
    "rating": "太濕",
    "hours": "不錯",
    "row": 73
  },
  {
    "name": "薑絲嗆",
    "rating": "普通",
    "hours": "",
    "row": 77
  },
  {
    "name": "看店員",
    "rating": "http://beefsouptn.blogspot.tw/2012/09/Auu.html",
    "hours": "舜聖牛肉",
    "row": 78
  },
  {
    "name": "300以上的會出現稀有部位但口感就差不多",
    "rating": "717台灣台南市仁德區中正路一段525號",
    "hours": "06-266-8816",
    "row": 81
  },
  {
    "name": "三間店面",
    "rating": "方便",
    "hours": "",
    "row": 82
  },
  {
    "name": "安平林家牛肉湯",
    "rating": "4",
    "hours": "24HR",
    "row": 83
  },
  {
    "name": "大片",
    "rating": "量也OK",
    "hours": "100附肉燥飯",
    "row": 84
  },
  {
    "name": "吃到飽",
    "rating": "普通",
    "hours": "",
    "row": 85
  },
  {
    "name": "自製無防腐劑辣椒醬",
    "rating": "好",
    "hours": "http://beefsouptn.blogspot.tw/2013/06/anpinglin.html",
    "row": 86
  },
  {
    "name": "安仔牛肉爐(佳里店)",
    "rating": "4",
    "hours": "05:00-09:00",
    "row": 87
  },
  {
    "name": "11:30-02:00",
    "rating": "週二",
    "hours": "輕薄蔬果湯頭",
    "row": 88
  },
  {
    "name": "杜牛肉湯",
    "rating": "4",
    "hours": "04:00-中午",
    "row": 89
  },
  {
    "name": "像炒菜肉",
    "rating": "100附肉燥飯",
    "hours": "普通",
    "row": 90
  },
  {
    "name": "聽說牛心湯不錯",
    "rating": "702台灣台南市南區西門路一段201號(大成路)",
    "hours": "06-2631471",
    "row": 91
  },
  {
    "name": "府城牛肉湯",
    "rating": "4",
    "hours": "16:00-05:00",
    "row": 92
  },
  {
    "name": "清甜湯頭",
    "rating": "變差了",
    "hours": "110",
    "row": 93
  },
  {
    "name": "好吃",
    "rating": "普通",
    "hours": "較差",
    "row": 94
  },
  {
    "name": "(前陣子湯頭與牛肉品質一直不穩定)",
    "rating": "700台灣台南市中西區府前路二段173號",
    "hours": "06-2295210",
    "row": 96
  },
  {
    "name": "03:00",
    "rating": "199?",
    "hours": "22.99139",
    "row": 97
  },
  {
    "name": "富吉牛肉麵火鍋專門店",
    "rating": "4",
    "hours": "11:00-14:00",
    "row": 98
  },
  {
    "name": "17:00-22:00",
    "rating": "無",
    "hours": "黃色湯頭",
    "row": 99
  },
  {
    "name": "上肉油香",
    "rating": "好",
    "hours": "",
    "row": 101
  },
  {
    "name": "(100",
    "rating": "150)",
    "hours": "",
    "row": 103
  },
  {
    "name": "上肉(100)肉量多",
    "rating": "100",
    "hours": "好",
    "row": 105
  },
  {
    "name": "(富吉牛肉麵、牛肉爐)",
    "rating": "702台灣台南市南區新興路366-1號",
    "hours": "06-263-8855",
    "row": 108
  },
  {
    "name": "合滿味牛肉湯",
    "rating": "4",
    "hours": "06:00-13:30",
    "row": 109
  },
  {
    "name": "湯頭實在令小編難忘",
    "rating": "710台灣台南市永康區永大路二段103巷8號",
    "hours": "06-2051755",
    "row": 110
  },
  {
    "name": "美牛肉湯",
    "rating": "4",
    "hours": "24HR",
    "row": 111
  },
  {
    "name": "16:00",
    "rating": "肉燙久好喝",
    "hours": "",
    "row": 115
  },
  {
    "name": "晚上較鹹",
    "rating": "部位好、鮮度夠",
    "hours": "普通",
    "row": 117
  },
  {
    "name": "小碗60",
    "rating": "普通",
    "hours": "無",
    "row": 118
  },
  {
    "name": "阿財一樣",
    "rating": "普通",
    "hours": "http://beefsouptn.blogspot.tw/2014/06/mei.html",
    "row": 119
  },
  {
    "name": "新興路 美 要吃早上四點過後到七點前的時段",
    "rating": "有花肉不用加價其他時間肉質有差",
    "hours": "加點炒牛腩.",
    "row": 121
  },
  {
    "name": "晚上(18:00-03:00) 0989-373-022",
    "rating": "小",
    "hours": "看時間",
    "row": 123
  },
  {
    "name": "00：00",
    "rating": "約1989",
    "hours": "22.975096",
    "row": 126
  },
  {
    "name": "牛肉專賣店(民生路)",
    "rating": "4",
    "hours": "17:00-02:00",
    "row": 127
  },
  {
    "name": "原康樂街府前路老店",
    "rating": "700台灣台南市中西區民生路二段235號",
    "hours": "0939-739-030",
    "row": 128
  },
  {
    "name": "三大牛肉火鍋",
    "rating": "4",
    "hours": "週二-週四",
    "row": 129
  },
  {
    "name": "下午可能沒休息",
    "rating": "週一",
    "hours": "牛甜香胡椒湯頭",
    "row": 133
  },
  {
    "name": "150",
    "rating": "普通",
    "hours": "牛肉肉燥飯",
    "row": 134
  },
  {
    "name": "好吃",
    "rating": "普通",
    "hours": "好",
    "row": 135
  },
  {
    "name": "下午有時候會直接繼續做不休息",
    "rating": "710台灣台南市永康區國光三街3號",
    "hours": "06-2712411 0932826763",
    "row": 136
  },
  {
    "name": "勝立牛肉湯",
    "rating": "4",
    "hours": "06:00-14:00",
    "row": 137
  },
  {
    "name": "還有很特別的八角牛腩湯",
    "rating": "台南市永康區勝學路88號",
    "hours": "0919-161-820",
    "row": 138
  },
  {
    "name": "樹仔牛肉湯",
    "rating": "4",
    "hours": "16:00-01:00",
    "row": 139
  },
  {
    "name": "200",
    "rating": "不錯",
    "hours": "甜香好吃",
    "row": 141
  },
  {
    "name": "順福土產牛肉湯",
    "rating": "4",
    "hours": "02:30-17:00",
    "row": 142
  },
  {
    "name": "萬林牛肉湯",
    "rating": "4",
    "hours": "11:00-14:00",
    "row": 143
  },
  {
    "name": "17:00-21:00",
    "rating": "",
    "hours": "輕薄阿裕蔬果湯頭",
    "row": 144
  },
  {
    "name": "非常重視肉質",
    "rating": "",
    "hours": "",
    "row": 145
  },
  {
    "name": "王家牛肉湯",
    "rating": "4",
    "hours": "06:00-13:30",
    "row": 146
  },
  {
    "name": "燙久不硬",
    "rating": "100",
    "hours": "不錯",
    "row": 148
  },
  {
    "name": "10元",
    "rating": "不錯",
    "hours": "",
    "row": 150
  },
  {
    "name": "真味膏",
    "rating": "不錯",
    "hours": "http://beefsouptn.blogspot.tw/2012/10/wang.html",
    "row": 151
  },
  {
    "name": "店面很大",
    "rating": "710台灣台南市永康區國光三街1號(永大路與大灣三街口)",
    "hours": "06-2734599",
    "row": 152
  },
  {
    "name": "文章牛肉湯",
    "rating": "4",
    "hours": "16:00-13:00",
    "row": 153
  },
  {
    "name": "16:00",
    "rating": "特色淡中藥湯頭",
    "hours": "好",
    "row": 157
  },
  {
    "name": "花肉適中",
    "rating": "普通",
    "hours": "不錯",
    "row": 159
  },
  {
    "name": "量少較差",
    "rating": "好",
    "hours": "好",
    "row": 160
  },
  {
    "name": "品質穩定，開店時間長",
    "rating": "708台灣台南市安平區安平路590號",
    "hours": "06-228-4626",
    "row": 161
  },
  {
    "name": "西羅殿牛肉湯",
    "rating": "4",
    "hours": "04:30-13:30",
    "row": 162
  },
  {
    "name": "花肉嫩入口即化",
    "rating": "100",
    "hours": "",
    "row": 163
  },
  {
    "name": "附肉燥飯",
    "rating": "偏軟",
    "hours": "普通",
    "row": 165
  },
  {
    "name": "有加胡椒鹽",
    "rating": "普通",
    "hours": "好",
    "row": 166
  },
  {
    "name": "肉質一流，入口即化。",
    "rating": "704台灣台南市北區公園南路98號",
    "hours": "06-2294056",
    "row": 170
  },
  {
    "name": "小北牛肉湯",
    "rating": "4",
    "hours": "06:00-20:00",
    "row": 171
  },
  {
    "name": "頂級花肉",
    "rating": "80",
    "hours": "",
    "row": 174
  },
  {
    "name": "附肉燥飯",
    "rating": "普通",
    "hours": "普通",
    "row": 177
  },
  {
    "name": "(原本是阿枝牛肉湯(總店))",
    "rating": "704台灣台南市北區西門路四段65巷85號(小北攤販第A85號店)",
    "hours": "06-251-4600",
    "row": 178
  },
  {
    "name": "新鮮牛肉湯(開元路)",
    "rating": "4",
    "hours": "04:30-11:00",
    "row": 179
  },
  {
    "name": "東門路有分店",
    "rating": "704台灣台南市北區開元路325號",
    "hours": "06-2744423",
    "row": 180
  },
  {
    "name": "閻家土產牛肉專賣店",
    "rating": "4",
    "hours": "06:30-14:00",
    "row": 181
  },
  {
    "name": "16:00-20:30",
    "rating": "週二",
    "hours": "甜鹹完美比例薑絲牛腩大骨湯",
    "row": 182
  },
  {
    "name": "0910847374",
    "rating": "大",
    "hours": "普通",
    "row": 184
  },
  {
    "name": "一品牛肉湯",
    "rating": "4",
    "hours": "11:00-20:00",
    "row": 185
  },
  {
    "name": "永福牛肉湯",
    "rating": "4",
    "hours": "05:00-13:00",
    "row": 186
  },
  {
    "name": "有時偏硬",
    "rating": "100",
    "hours": "",
    "row": 187
  },
  {
    "name": "60",
    "rating": "好吃",
    "hours": "肥肉多",
    "row": 188
  },
  {
    "name": "普通",
    "rating": "普通",
    "hours": "",
    "row": 189
  },
  {
    "name": "略帶豆瓣味",
    "rating": "好",
    "hours": "http://beefsouptn.blogspot.tw/2012/09/blog-post_8.html",
    "row": 190
  },
  {
    "name": "店面很低調；湯幾乎是裝到滿",
    "rating": "701台灣台南市東區府連東路25號(附近)",
    "hours": "06-2762141",
    "row": 191
  },
  {
    "name": "正味牛肉",
    "rating": "4",
    "hours": "11:00-14:00",
    "row": 192
  },
  {
    "name": "17:00-21:00",
    "rating": "週一",
    "hours": "清爽",
    "row": 193
  },
  {
    "name": "阿宏牛肉湯(大灣)",
    "rating": "4",
    "hours": "11:00-21:00",
    "row": 194
  },
  {
    "name": "非主流牛肉湯",
    "rating": "4",
    "hours": "17:00-01:00",
    "row": 195
  },
  {
    "name": "金城現宰牛肉夏林店",
    "rating": "4",
    "hours": "17:00-0:00",
    "row": 196
  },
  {
    "name": "民生路牛肉專賣徒弟",
    "rating": "702台南市南區夏林路33號",
    "hours": "06-223-8513",
    "row": 197
  },
  {
    "name": "鴻品牛肉",
    "rating": "4",
    "hours": " 11:00-14:00",
    "row": 198
  },
  {
    "name": "16:00-22:00",
    "rating": "週一",
    "hours": "近似阿安",
    "row": 199
  },
  {
    "name": "大骨高麗菜洋蔥湯頭",
    "rating": "分四種:",
    "hours": "",
    "row": 200
  },
  {
    "name": "霜降",
    "rating": "120附飯",
    "hours": "普通",
    "row": 206
  },
  {
    "name": "量少",
    "rating": "不錯(10)",
    "hours": "東成膏",
    "row": 207
  },
  {
    "name": "店員很多，服務態度也沒有降低",
    "rating": "710台灣台南市永康區大安街288號",
    "hours": "06-2055243",
    "row": 208
  },
  {
    "name": "牛不牛肉湯",
    "rating": "4",
    "hours": "週一-週五",
    "row": 210
  },
  {
    "name": "11:30-15:00 17:00-22:00",
    "rating": "無",
    "hours": "",
    "row": 213
  },
  {
    "name": "益仔牛肉湯",
    "rating": "4",
    "hours": "06:00-13:30",
    "row": 214
  },
  {
    "name": "極牛溫體牛肉火鍋",
    "rating": "4",
    "hours": "",
    "row": 215
  },
  {
    "name": "生哥牛肉湯",
    "rating": "4",
    "hours": "04:00-13:00",
    "row": 216
  },
  {
    "name": "17:00-23:00",
    "rating": "週二",
    "hours": "牛骨清甜",
    "row": 217
  },
  {
    "name": "堅持用好部位",
    "rating": "",
    "hours": "",
    "row": 218
  },
  {
    "name": "還附鳥蛋+油豆腐",
    "rating": "",
    "hours": "普通",
    "row": 219
  },
  {
    "name": "阿財牛肉湯(大同店)",
    "rating": "3.5",
    "hours": "17:00-23:00",
    "row": 220
  },
  {
    "name": "附肉燥飯",
    "rating": "普通",
    "hours": "肥肉多，不錯",
    "row": 221
  },
  {
    "name": "跟安平阿財風格完全不同",
    "rating": "台南市東區大同路二段379號",
    "hours": "06-2148165",
    "row": 222
  },
  {
    "name": "阿村牛肉湯(國華街)",
    "rating": "3.5",
    "hours": "04:00-13:00",
    "row": 223
  },
  {
    "name": "低C/P值",
    "rating": "乾黏",
    "hours": "無",
    "row": 224
  },
  {
    "name": "老闆娘超自信，湯頭更勝保安店",
    "rating": "700台灣台南市中西區國華街三段128號",
    "hours": "06-222-9446",
    "row": 225
  },
  {
    "name": "阿福牛肉湯",
    "rating": "3.5",
    "hours": "05:30-12:40",
    "row": 226
  },
  {
    "name": "超便宜",
    "rating": "偏軟",
    "hours": "香氣夠但沒滋味",
    "row": 227
  },
  {
    "name": "http://www.wretch.cc/blog/issaki916/12741831",
    "rating": "709台灣台南市安南區本原街三段85號",
    "hours": "0982-816701",
    "row": 228
  },
  {
    "name": "06-2470116",
    "rating": "普通",
    "hours": "普通",
    "row": 229
  },
  {
    "name": "阿宏牛肉湯(永康)",
    "rating": "3.5",
    "hours": "06:00-13:30   17:00-20:00",
    "row": 230
  },
  {
    "name": "週日到1430  ",
    "rating": "",
    "hours": "",
    "row": 231
  },
  {
    "name": "0915-128262",
    "rating": "",
    "hours": "",
    "row": 232
  },
  {
    "name": "阿吉牛肉湯(民德路)",
    "rating": "3.5",
    "hours": "06:00-14:00",
    "row": 233
  },
  {
    "name": "附肉燥飯",
    "rating": "普通",
    "hours": "特殊香氣的肉燥飯",
    "row": 234
  },
  {
    "name": "聽說肉質很棒，老闆跟肉販交好",
    "rating": "(郭綜合對面)",
    "hours": "0938-207238",
    "row": 235
  },
  {
    "name": "阿家牛肉湯",
    "rating": "3.5",
    "hours": "05:00-14:00",
    "row": 236
  },
  {
    "name": "http://life.chinatimes.com/LifeContent/140605/20121030000683.html",
    "rating": "702台灣台南市南區中華南路一段80號",
    "hours": "0912-133352",
    "row": 239
  },
  {
    "name": "阿牛仔牛肉湯(西門路)",
    "rating": "3.5",
    "hours": "05:00-20:00",
    "row": 240
  },
  {
    "name": "近永慶",
    "rating": "偏硬、厚",
    "hours": "大100",
    "row": 241
  },
  {
    "name": "鹹甜適中",
    "rating": "普通",
    "hours": "",
    "row": 242
  },
  {
    "name": "有青蔥",
    "rating": "普通",
    "hours": "http://beefsouptn.blogspot.tw/2013/01/beeferximen.html",
    "row": 243
  },
  {
    "name": "薑+蔥+醋",
    "rating": "702台灣台南市南區西門路一段464號",
    "hours": "0970-281-084",
    "row": 246
  },
  {
    "name": "阿榮牛肉湯(麻豆)",
    "rating": "3.5",
    "hours": "11:00-02:00",
    "row": 247
  },
  {
    "name": "阿山牛肉家",
    "rating": "3.5",
    "hours": "11:00-14:00 17:00-22:00",
    "row": 248
  },
  {
    "name": "阿生牛肉湯",
    "rating": "3.5",
    "hours": "10:00-20:00",
    "row": 249
  },
  {
    "name": "阿秀牛肉湯",
    "rating": "3.5",
    "hours": "9:30-22:30",
    "row": 250
  },
  {
    "name": "60",
    "rating": "不錯",
    "hours": "",
    "row": 251
  },
  {
    "name": "0929-797-068",
    "rating": "",
    "hours": "",
    "row": 252
  },
  {
    "name": "阿億牛肉城",
    "rating": "3.5",
    "hours": "16:30-02:00",
    "row": 253
  },
  {
    "name": "(有套餐)",
    "rating": "普通",
    "hours": "",
    "row": 254
  },
  {
    "name": "北安牛肉湯",
    "rating": "3.5",
    "hours": "05:00-13:30",
    "row": 255
  },
  {
    "name": "05:00-14:00",
    "rating": "週二",
    "hours": "秘方蔬果湯頭 鹹甜交替",
    "row": 257
  },
  {
    "name": "附肉燥飯",
    "rating": "普通",
    "hours": "好吃",
    "row": 261
  },
  {
    "name": "養成認真的習慣 做出穩定的高品質",
    "rating": "704台灣台南市北區北安路一段225號(為對面地址，店在菜市場)",
    "hours": "0917-295991",
    "row": 264
  },
  {
    "name": "大朝鮮牛肉湯",
    "rating": "3.5",
    "hours": "06:00-19:30",
    "row": 265
  },
  {
    "name": "0911232717",
    "rating": "",
    "hours": "",
    "row": 266
  },
  {
    "name": "二姐牛肉湯",
    "rating": "3.5",
    "hours": "06:00-11:00",
    "row": 267
  },
  {
    "name": "二王鮮牛肉",
    "rating": "3.5",
    "hours": "06:00-13:00",
    "row": 268
  },
  {
    "name": "17:00-21:00",
    "rating": "週二",
    "hours": "清甜微中藥湯頭",
    "row": 269
  },
  {
    "name": "厲害",
    "rating": "薄，口感較差",
    "hours": "100",
    "row": 270
  },
  {
    "name": "網友陳孟峰：牛肉很新鮮，也是限量賣完就沒了，牛肉湯+一碗肉燥飯只要100元(現在沒有)，在寒冷的冬天早晨來上一碗，既可以暖身子又健康。",
    "rating": "710台灣台南市永康區中山南路724號",
    "hours": "06-2314375",
    "row": 273
  },
  {
    "name": "發牛肉湯",
    "rating": "3.5",
    "hours": "17:00-01:00",
    "row": 274
  },
  {
    "name": "紅人牛肉湯(原阿雄)",
    "rating": "3.5",
    "hours": "03:30-10:00",
    "row": 275
  },
  {
    "name": "06-3309651",
    "rating": "",
    "hours": "普通",
    "row": 276
  },
  {
    "name": "輝本土牛肉(仁德)",
    "rating": "3.5",
    "hours": "11:00-14:00",
    "row": 277
  },
  {
    "name": "16:00-22:00",
    "rating": "週一",
    "hours": "清爽蔬果湯頭較薄",
    "row": 278
  },
  {
    "name": "醬料多元",
    "rating": "普通",
    "hours": "http://beefsouptn.blogspot.tw/2015/04/zendehui.html",
    "row": 279
  },
  {
    "name": "0927-504-056",
    "rating": "大",
    "hours": "普通",
    "row": 280
  },
  {
    "name": "15:00",
    "rating": "2010/1/30",
    "hours": "22.9698808",
    "row": 281
  },
  {
    "name": "輝旺牛肉湯(新營)",
    "rating": "3.5",
    "hours": "04:00-13:00",
    "row": 282
  },
  {
    "name": "活力牛肉莊",
    "rating": "3.5",
    "hours": "17:00-02:00",
    "row": 283
  },
  {
    "name": "12:00-04:00",
    "rating": "週一",
    "hours": "菜頭蔬果湯頭",
    "row": 285
  },
  {
    "name": "老闆推腿肉(普通肉)",
    "rating": "100",
    "hours": "偏軟",
    "row": 287
  },
  {
    "name": "切肉大塊",
    "rating": "701台灣台南市東區東門路二段258號",
    "hours": "06-259-0005",
    "row": 288
  },
  {
    "name": "吉品現宰牛肉清湯",
    "rating": "3.5",
    "hours": "11:00-01:00",
    "row": 289
  },
  {
    "name": "吃到飽",
    "rating": "普通",
    "hours": "好",
    "row": 290
  },
  {
    "name": "崑山科大附近 超好喝 而且白飯肉燥飯吃到飽 崑科大的學生都愛喝",
    "rating": "710台灣台南市永康區永大路一段300-3號",
    "hours": "06 272 0775",
    "row": 294
  },
  {
    "name": "健泰牛肉湯",
    "rating": "3.5",
    "hours": "08:00-14:00",
    "row": 295
  },
  {
    "name": "16:00-21:00",
    "rating": "無",
    "hours": "特殊香薑絲牛腩湯頭",
    "row": 296
  },
  {
    "name": "金城現宰牛肉",
    "rating": "3.5",
    "hours": "11:00-14:00",
    "row": 297
  },
  {
    "name": "17:00-22:00",
    "rating": "週二",
    "hours": "蘋果蔬果湯頭",
    "row": 298
  },
  {
    "name": "金土產牛肉湯",
    "rating": "3.5",
    "hours": "05:00-13:00",
    "row": 299
  },
  {
    "name": "或加油脂",
    "rating": "60/100",
    "hours": "",
    "row": 301
  },
  {
    "name": "附白飯",
    "rating": "普通",
    "hours": "無",
    "row": 302
  },
  {
    "name": "老田牛肉湯",
    "rating": "3.5",
    "hours": "05:10-13:30",
    "row": 303
  },
  {
    "name": "營業七八年了",
    "rating": "701台灣台南市東區崇明路437號",
    "hours": "0932-502777",
    "row": 305
  },
  {
    "name": "李家牛肉湯",
    "rating": "3.5",
    "hours": "11:00-14:00",
    "row": 306
  },
  {
    "name": "17:00-21:00",
    "rating": "週一",
    "hours": "牛骨湯頭",
    "row": 307
  },
  {
    "name": "而且重點，肉燥飯吃到飽，很划算。 ",
    "rating": "730台灣台南市新營區中正路33-6號",
    "hours": "06-6322872",
    "row": 310
  },
  {
    "name": "馬沙溝旗哥牛肉湯",
    "rating": "3.5",
    "hours": "07:00-14:00",
    "row": 311
  },
  {
    "name": "16:00-02:00",
    "rating": "週一14:00-週二14:00",
    "hours": "特殊",
    "row": 312
  },
  {
    "name": "後勁不錯",
    "rating": "普通肉",
    "hours": "",
    "row": 314
  },
  {
    "name": "五花肉",
    "rating": "150up",
    "hours": "",
    "row": 315
  },
  {
    "name": "碗較小",
    "rating": "粒粒分明",
    "hours": "牛肉肉燥飯",
    "row": 316
  },
  {
    "name": "蠻牛牛肉湯(新營)",
    "rating": "3.5",
    "hours": "09:00-01:00",
    "row": 317
  },
  {
    "name": "牛光千牛肉專賣店",
    "rating": "3.5",
    "hours": "11:00-14:00",
    "row": 318
  },
  {
    "name": "17:00-21:00",
    "rating": "週二",
    "hours": "不錯",
    "row": 319
  },
  {
    "name": "091187130",
    "rating": "大",
    "hours": "普通",
    "row": 320
  },
  {
    "name": "牛妹牛肉湯",
    "rating": "3.5",
    "hours": "04:30-11:30",
    "row": 321
  },
  {
    "name": "老闆娘非常幽默好相處",
    "rating": "700台灣台南市中西區保安路130號",
    "hours": "無",
    "row": 322
  },
  {
    "name": "牛肉の場牛肉湯(牛肉之場牛肉湯)",
    "rating": "3.5",
    "hours": "06:00-14:00",
    "row": 323
  },
  {
    "name": "14:00-01:00",
    "rating": "無(有事情會選周一二休)",
    "hours": "清甜湯頭",
    "row": 324
  },
  {
    "name": "偏硬Q",
    "rating": "60(小)",
    "hours": "",
    "row": 325
  },
  {
    "name": "100(特大附白飯)",
    "rating": "普通",
    "hours": "牛肉肉燥飯",
    "row": 326
  },
  {
    "name": "香、好吃",
    "rating": "普通",
    "hours": "",
    "row": 327
  },
  {
    "name": "東成",
    "rating": "普通",
    "hours": "http://beefsouptn.blogspot.tw/2013/01/beefRanch.html",
    "row": 328
  },
  {
    "name": "海安路和成功路口",
    "rating": "700台灣台南市中西區海安路二段362號",
    "hours": "0931-718-753",
    "row": 333
  },
  {
    "name": "0983-525-769",
    "rating": "普通",
    "hours": "普通",
    "row": 334
  },
  {
    "name": "牛狀元牛肉湯",
    "rating": "3.5",
    "hours": "06:00-14:00",
    "row": 335
  },
  {
    "name": "17:00-00:00",
    "rating": "週一",
    "hours": "蔬菜湯頭",
    "row": 336
  },
  {
    "name": "0910-767205",
    "rating": "大",
    "hours": "不便",
    "row": 337
  },
  {
    "name": "派初所鮮火鍋",
    "rating": "3.5",
    "hours": "11:00-22:00",
    "row": 338
  },
  {
    "name": "品億牛肉湯",
    "rating": "3.5",
    "hours": "05:00-02:00",
    "row": 339
  },
  {
    "name": "跟阿億湯頭差很多",
    "rating": "台南市東區中華東路三段250號",
    "hours": "06 290 2280",
    "row": 340
  },
  {
    "name": "其森牛肉清湯",
    "rating": "3.5",
    "hours": "06:00-14:00",
    "row": 341
  },
  {
    "name": "17:00-21:00",
    "rating": "週二",
    "hours": "蔬果重大骨湯頭不膩口",
    "row": 342
  },
  {
    "name": "琴牛肉湯",
    "rating": "3.5",
    "hours": "06:00-20:00",
    "row": 343
  },
  {
    "name": "推上等肉",
    "rating": "點湯附小青菜+肉燥飯",
    "hours": "",
    "row": 344
  },
  {
    "name": "上等肉150",
    "rating": "普通",
    "hours": "普通",
    "row": 346
  },
  {
    "name": "尚好吃牛肉湯",
    "rating": "3.5",
    "hours": "03:00-13:00",
    "row": 347
  },
  {
    "name": "大菜市內",
    "rating": "700 台南市國華街3段16巷2號",
    "hours": "0989-351-382",
    "row": 349
  },
  {
    "name": "石精臼牛肉湯",
    "rating": "3.5",
    "hours": "1:30-11:30",
    "row": 350
  },
  {
    "name": "賣完為止",
    "rating": "週二晚上到週一早上",
    "hours": "早上偏甜好喝",
    "row": 352
  },
  {
    "name": "晚上偏鹹",
    "rating": "早上肉質不錯",
    "hours": "110",
    "row": 353
  },
  {
    "name": "就在赤崁樓旁，地點超好，晚上很快就賣完了",
    "rating": "700台灣台南市中西區民族路二段246號",
    "hours": "06-223-2266",
    "row": 354
  },
  {
    "name": "天才(才哥)牛肉爐",
    "rating": "3.5",
    "hours": "11:00-14:00  17:00-22:00",
    "row": 355
  },
  {
    "name": "吳家牛肉湯",
    "rating": "3.5",
    "hours": "17:00-02:00",
    "row": 356
  },
  {
    "name": "週五",
    "rating": "六",
    "hours": "日",
    "row": 357
  },
  {
    "name": "17:00-03:00",
    "rating": "週一",
    "hours": "偏鹹牛肋骨湯頭",
    "row": 358
  },
  {
    "name": "肉燙久好喝",
    "rating": "差",
    "hours": "",
    "row": 359
  },
  {
    "name": "帶筋偏硬",
    "rating": "普通",
    "hours": "",
    "row": 360
  },
  {
    "name": "送白飯",
    "rating": "好吃",
    "hours": "牛肉肉燥飯",
    "row": 361
  },
  {
    "name": "細緻好吃",
    "rating": "普通",
    "hours": "",
    "row": 362
  },
  {
    "name": "醬油膏口感特別",
    "rating": "好",
    "hours": "http://beefsouptn.blogspot.tw/2012/08/blog-post_31.html",
    "row": 363
  },
  {
    "name": "肉燥飯加五塊",
    "rating": "701台灣台南市東區中華東路一段145號",
    "hours": "06-2216189",
    "row": 364
  },
  {
    "name": "22:00",
    "rating": "199x",
    "hours": "22.991385",
    "row": 365
  },
  {
    "name": "小周牛腩火鍋",
    "rating": "3.5",
    "hours": "11:00-14:00",
    "row": 366
  },
  {
    "name": "16:30-23:00",
    "rating": "週二",
    "hours": "偏淡",
    "row": 367
  },
  {
    "name": "0956-333-595",
    "rating": "普通",
    "hours": "",
    "row": 368
  },
  {
    "name": "乾淨",
    "rating": "普通",
    "hours": "",
    "row": 369
  },
  {
    "name": "新鮮牛肉湯(東門路)",
    "rating": "3.5",
    "hours": "05:00-14:00",
    "row": 370
  },
  {
    "name": "17:00-21:00",
    "rating": "週二",
    "hours": "不錯",
    "row": 371
  },
  {
    "name": "微醋薑絲",
    "rating": "偏硬(下午)",
    "hours": "60",
    "row": 372
  },
  {
    "name": "120",
    "rating": "150",
    "hours": "",
    "row": 373
  },
  {
    "name": "送肉燥飯",
    "rating": "粒粒分明",
    "hours": "好吃高雄口味",
    "row": 374
  },
  {
    "name": "醬油膏不錯",
    "rating": "好",
    "hours": "http://beefsouptn.blogspot.tw/2012/09/blog-post_23.html",
    "row": 375
  },
  {
    "name": "超年輕老闆，與開元路新鮮牛肉湯是兄弟",
    "rating": "701台灣台南市東區東門路二段51號",
    "hours": "06-2369680",
    "row": 376
  },
  {
    "name": "圓環牛肉湯",
    "rating": "3.5",
    "hours": "04:00-13:30",
    "row": 377
  },
  {
    "name": "毽子肉",
    "rating": "100",
    "hours": "普通",
    "row": 378
  },
  {
    "name": "可淋紅糟好吃",
    "rating": "無",
    "hours": "香珍膏",
    "row": 379
  },
  {
    "name": "0927-040505",
    "rating": "中大",
    "hours": "普通",
    "row": 380
  },
  {
    "name": "助仔牛肉湯",
    "rating": "3.5",
    "hours": "04:30-14:00",
    "row": 381
  },
  {
    "name": "倫敦大:紅槽牛肉是特色",
    "rating": "708台灣台南市安平區安平路624號",
    "hours": "06-2410201",
    "row": 382
  },
  {
    "name": "荖饕牛肉湯",
    "rating": "3.5",
    "hours": "",
    "row": 383
  },
  {
    "name": "箴記牛肉湯",
    "rating": "3.5",
    "hours": "06:00-14:00",
    "row": 384
  },
  {
    "name": "17:00-20:00",
    "rating": "週二",
    "hours": "薑絲米酒的雞骨牛大骨湯頭",
    "row": 385
  },
  {
    "name": "黃記牛肉湯",
    "rating": "3.5",
    "hours": "06:00-13:00",
    "row": 386
  },
  {
    "name": "17:00-20:00 ",
    "rating": "週二",
    "hours": "",
    "row": 387
  },
  {
    "name": "安仔牛肉(麻豆)",
    "rating": "3.5",
    "hours": "11:00-14:00",
    "row": 388
  },
  {
    "name": "17:00-21:00",
    "rating": "週一",
    "hours": "",
    "row": 389
  },
  {
    "name": "牛元牛肉湯",
    "rating": "3.5",
    "hours": "05:00-21:00",
    "row": 390
  },
  {
    "name": "牛A牛肉湯",
    "rating": "3.5",
    "hours": "10:30-14:00",
    "row": 391
  },
  {
    "name": "16:30-20:30",
    "rating": "",
    "hours": "",
    "row": 392
  },
  {
    "name": "(現殺)牛肉湯",
    "rating": "3",
    "hours": "07:00-13:00",
    "row": 393
  },
  {
    "name": "(大約)",
    "rating": "週二",
    "hours": "特殊洋蔥湯頭",
    "row": 394
  },
  {
    "name": "阿財牛肉湯",
    "rating": "3",
    "hours": "11:00-2:00",
    "row": 395
  },
  {
    "name": "肉燙久更好喝",
    "rating": "偏硬",
    "hours": "普通",
    "row": 396
  },
  {
    "name": "喜歡石精臼也會喜歡這裡",
    "rating": "708台灣台南市安平區古堡街5號",
    "hours": "06-2261252",
    "row": 397
  },
  {
    "name": "22:00",
    "rating": "約1994",
    "hours": "22.9995357",
    "row": 398
  },
  {
    "name": "阿誠牛肉湯",
    "rating": "3",
    "hours": "06:00-20:00",
    "row": 399
  },
  {
    "name": "肉燙久更鮮甜",
    "rating": "好",
    "hours": "",
    "row": 400
  },
  {
    "name": "上精肉",
    "rating": "便宜(80)",
    "hours": "好吃",
    "row": 404
  },
  {
    "name": "深色滷肉",
    "rating": "差",
    "hours": "好",
    "row": 405
  },
  {
    "name": "老闆阿誠要晚上才會出現",
    "rating": "700台灣台南市中西區民族路三段168號",
    "hours": "06-2216189",
    "row": 406
  },
  {
    "name": "阿村牛肉湯(保安路)",
    "rating": "3",
    "hours": "04:00-中午",
    "row": 407
  },
  {
    "name": "賣完為止",
    "rating": "",
    "hours": "雞湯湯頭",
    "row": 409
  },
  {
    "name": "較硬不嫩",
    "rating": "普通",
    "hours": "",
    "row": 410
  },
  {
    "name": "碗較小",
    "rating": "普通",
    "hours": "無",
    "row": 411
  },
  {
    "name": "晚上10點幾乎就喝不到了",
    "rating": "700台灣台南市中西區保安路41號",
    "hours": "06-229-3908",
    "row": 412
  },
  {
    "name": "阿牛中海炒牛肉(阿牛牛肉湯)",
    "rating": "3",
    "hours": "06:30-21:00",
    "row": 415
  },
  {
    "name": "(週二沒牛肉湯)",
    "rating": "偏綠蔬果湯頭",
    "hours": "偏硬",
    "row": 416
  },
  {
    "name": "官方網站  http://tainananyo.com/",
    "rating": "701台灣台南市東區小東路250-3號",
    "hours": "06-2744-707",
    "row": 417
  },
  {
    "name": "阿棠牛肉湯",
    "rating": "3",
    "hours": "11:00-0:00",
    "row": 418
  },
  {
    "name": "06-2203056",
    "rating": "普通",
    "hours": "普通",
    "row": 419
  },
  {
    "name": "阿義牛肉湯",
    "rating": "3",
    "hours": "05:00-14:00",
    "row": 420
  },
  {
    "name": "阿英牛肉湯",
    "rating": "3",
    "hours": "10:00-22:00",
    "row": 421
  },
  {
    "name": "犇牛家莊",
    "rating": "3",
    "hours": "08:00-14:00",
    "row": 422
  },
  {
    "name": "17:00-20:00",
    "rating": "週二",
    "hours": "中藥湯頭",
    "row": 423
  },
  {
    "name": "崇明路新鮮牛肉湯",
    "rating": "3",
    "hours": "05:30-13:30",
    "row": 424
  },
  {
    "name": "大港牛肉湯",
    "rating": "3",
    "hours": "05:30-中午",
    "row": 425
  },
  {
    "name": "賣完為止",
    "rating": "週二",
    "hours": "無味素偏鹹牛大骨湯",
    "row": 426
  },
  {
    "name": "原本開在開元路x長榮路口，因牛病擴大休息幾十年，重出江湖",
    "rating": "704台灣台南市北區和緯路四段207號",
    "hours": "0955-042-856",
    "row": 427
  },
  {
    "name": "大頭牛肉湯(崇德路新鮮牛肉湯)",
    "rating": "3",
    "hours": "11:00-14:00",
    "row": 428
  },
  {
    "name": "17:00-22:30",
    "rating": "週一",
    "hours": "厚牛大骨湯頭",
    "row": 429
  },
  {
    "name": "(敖2-3天)",
    "rating": "Q硬",
    "hours": "",
    "row": 430
  },
  {
    "name": "舜聖牛肉",
    "rating": "100",
    "hours": "70",
    "row": 431
  },
  {
    "name": "學生點肉湯送白飯1碗",
    "rating": "普通",
    "hours": "有",
    "row": 432
  },
  {
    "name": "店面非常低調",
    "rating": "701台灣台南市東區崇德路636號",
    "hours": "06-2675043",
    "row": 435
  },
  {
    "name": "06-3355598",
    "rating": "普通",
    "hours": "普通",
    "row": 436
  },
  {
    "name": "杜牛肉湯(新興路)",
    "rating": "3",
    "hours": "2:30-10:00",
    "row": 437
  },
  {
    "name": "老闆娘人很熱情",
    "rating": "702台灣台南市南區新興路164號",
    "hours": "06-2914943",
    "row": 438
  },
  {
    "name": "府城牛肉湯(仁德)",
    "rating": "3",
    "hours": "17:00-04:00",
    "row": 439
  },
  {
    "name": "花肉嫩碎",
    "rating": "100",
    "hours": "",
    "row": 440
  },
  {
    "name": "附白飯",
    "rating": "偏乾",
    "hours": "牛肉肉燥飯",
    "row": 441
  },
  {
    "name": "府城牛肉湯(中正北路)",
    "rating": "3",
    "hours": "17:00-02:00",
    "row": 442
  },
  {
    "name": "東成營養調味油膏",
    "rating": "好",
    "hours": "",
    "row": 443
  },
  {
    "name": "郭牛肉湯",
    "rating": "3",
    "hours": "06:30-16:00",
    "row": 444
  },
  {
    "name": "好味道牛肉湯(仁德)",
    "rating": "3",
    "hours": "06:30-13:30",
    "row": 445
  },
  {
    "name": "週二",
    "rating": "蔬果湯頭與米酒鹽薑絲",
    "hours": "上肉品質不均",
    "row": 447
  },
  {
    "name": "肉多",
    "rating": "100",
    "hours": "",
    "row": 449
  },
  {
    "name": "飯另外算",
    "rating": "粒粒分明",
    "hours": "好吃",
    "row": 450
  },
  {
    "name": "有洋蔥條、蔥花",
    "rating": "普通",
    "hours": "http://beefsouptn.blogspot.tw/2013/03/blog-post_3.html",
    "row": 451
  },
  {
    "name": "0918062175",
    "rating": "小",
    "hours": "不便",
    "row": 452
  },
  {
    "name": "鬍鬚忠牛肉湯(民族路無名土產牛肉湯)",
    "rating": "3",
    "hours": "17:00-10:00",
    "row": 453
  },
  {
    "name": "較淡",
    "rating": "上等",
    "hours": "",
    "row": 454
  },
  {
    "name": "頂級",
    "rating": "普通",
    "hours": "普通",
    "row": 456
  },
  {
    "name": "薑絲嗆",
    "rating": "好",
    "hours": "http://beefsouptn.blogspot.tw/2012/10/blog-post.html",
    "row": 457
  },
  {
    "name": "http://ppt.cc/Nx-6",
    "rating": "700台灣台南市中西區民族路三段91號",
    "hours": "0938-133306",
    "row": 459
  },
  {
    "name": "黃家牛肉湯",
    "rating": "3",
    "hours": "10:00-14:30",
    "row": 461
  },
  {
    "name": "16:30-22:00",
    "rating": "",
    "hours": "大骨湯頭",
    "row": 462
  },
  {
    "name": "麻豆阿榮旁系",
    "rating": "730台灣台南市新營區中正路90號",
    "hours": "06-6359126",
    "row": 463
  },
  {
    "name": "0928328683",
    "rating": "",
    "hours": "",
    "row": 464
  },
  {
    "name": "康樂街牛肉湯",
    "rating": "3",
    "hours": "04:30-13:30",
    "row": 465
  },
  {
    "name": "16:30-01:30",
    "rating": "週二",
    "hours": "中藥湯頭",
    "row": 466
  },
  {
    "name": "肉燥飯不用錢",
    "rating": "不錯",
    "hours": "牛肉肉燥飯",
    "row": 468
  },
  {
    "name": "豆瓣醬味道特殊",
    "rating": "700台灣台南市中西區康樂街325號",
    "hours": "06-2270579",
    "row": 469
  },
  {
    "name": "肯牛城牛肉清湯",
    "rating": "3",
    "hours": "10:30-15:00",
    "row": 470
  },
  {
    "name": "16:30-21:00",
    "rating": "週二",
    "hours": "",
    "row": 471
  },
  {
    "name": "2300123",
    "rating": "",
    "hours": "",
    "row": 472
  },
  {
    "name": "(劉家牛肉舖)",
    "rating": "3",
    "hours": "11:00-22:00",
    "row": 474
  },
  {
    "name": "C/P低",
    "rating": "軟",
    "hours": "牛肉肉燥飯，不錯",
    "row": 476
  },
  {
    "name": "0916-304387",
    "rating": "大",
    "hours": "普通",
    "row": 478
  },
  {
    "name": "明智土產牛肉湯",
    "rating": "3",
    "hours": "07:00-21:00",
    "row": 479
  },
  {
    "name": "微鹹微醋",
    "rating": "普通",
    "hours": "",
    "row": 480
  },
  {
    "name": "燙久會硬",
    "rating": "普通(100)",
    "hours": "",
    "row": 482
  },
  {
    "name": "小碗(60)",
    "rating": "粒粒分明",
    "hours": "肥肉多",
    "row": 483
  },
  {
    "name": "不會太油",
    "rating": "稠度較高顏色較深",
    "hours": "普通",
    "row": 484
  },
  {
    "name": "老闆喜歡收集老東西",
    "rating": "701台灣台南市東區東門路二段271號",
    "hours": "06-2356786",
    "row": 485
  },
  {
    "name": "南保牛肉湯",
    "rating": "3",
    "hours": "05:00-賣完為止",
    "row": 486
  },
  {
    "name": "100",
    "rating": "普通",
    "hours": "?",
    "row": 487
  },
  {
    "name": "南台牛肉湯",
    "rating": "3",
    "hours": "06:00-14:00",
    "row": 488
  },
  {
    "name": "潘家牛肉湯(國華街)",
    "rating": "3",
    "hours": "16:00-23:00",
    "row": 489
  },
  {
    "name": "附飯",
    "rating": "好吃，白米香氣很夠",
    "hours": "頗弱",
    "row": 491
  },
  {
    "name": "屠宰業者劉三和",
    "rating": "700台南市中西區國華街三段127號",
    "hours": "無",
    "row": 492
  },
  {
    "name": "品牛牛肉湯",
    "rating": "3",
    "hours": "11:00-23:30",
    "row": 493
  },
  {
    "name": "早上更好",
    "rating": "100",
    "hours": "",
    "row": 494
  },
  {
    "name": "附肉燥飯",
    "rating": "無",
    "hours": "普通",
    "row": 495
  },
  {
    "name": "http://ppt.cc/mf-K",
    "rating": "709台灣台南市安南區海佃路二段422號",
    "hours": "06-2451517",
    "row": 499
  },
  {
    "name": "品味牛肉湯",
    "rating": "3",
    "hours": "11:00-14:00",
    "row": 500
  },
  {
    "name": "17:00-21:00",
    "rating": "",
    "hours": "",
    "row": 501
  },
  {
    "name": "巧味(郭)牛肉湯",
    "rating": "3",
    "hours": "06:00-中午",
    "row": 502
  },
  {
    "name": "06-7952611",
    "rating": "",
    "hours": "",
    "row": 503
  },
  {
    "name": "清香牛肉湯",
    "rating": "3",
    "hours": "06:15-11:00",
    "row": 504
  },
  {
    "name": "0986712367",
    "rating": "小",
    "hours": "方便",
    "row": 505
  },
  {
    "name": "台灣牛土產牛肉湯(安平)",
    "rating": "3",
    "hours": "04:00-14:00",
    "row": 506
  },
  {
    "name": "(台灣的牛牛肉湯)",
    "rating": "3",
    "hours": "07:00-14:00",
    "row": 508
  },
  {
    "name": "17:00-20:00",
    "rating": "無",
    "hours": "偏甜蔬果湯頭",
    "row": 509
  },
  {
    "name": "周一晚上到周二晚上沒有牛肉湯  跟市區不是分店",
    "rating": "711台灣台南市歸仁區中山路三段285號",
    "hours": "06-2393-708",
    "row": 510
  },
  {
    "name": "新化牛之屋(新化本店)",
    "rating": "3",
    "hours": "4:00-賣完為止",
    "row": 511
  },
  {
    "name": "週一到13:00   ",
    "rating": "週二",
    "hours": "牛骨湯",
    "row": 512
  },
  {
    "name": "新市牛肉清湯",
    "rating": "3",
    "hours": "11:00-15:00",
    "row": 513
  },
  {
    "name": "17:00-22:30",
    "rating": "無",
    "hours": "",
    "row": 514
  },
  {
    "name": "一品牛肉店",
    "rating": "3",
    "hours": "06:30-20:00",
    "row": 515
  },
  {
    "name": "億哥牛肉湯(後甲圓環",
    "rating": "3",
    "hours": "24HR",
    "row": 516
  },
  {
    "name": "生意很不錯",
    "rating": "台南市東區裕農路574號",
    "hours": "06-260-2990",
    "row": 519
  },
  {
    "name": "永樂牛肉湯(阿輝)",
    "rating": "3",
    "hours": "03:00-11:00",
    "row": 520
  },
  {
    "name": "花肉150",
    "rating": "買湯就送",
    "hours": "",
    "row": 521
  },
  {
    "name": "量少",
    "rating": "無",
    "hours": "普通",
    "row": 522
  },
  {
    "name": "醬油膏淡",
    "rating": "普通",
    "hours": "http://beefsouptn.blogspot.tw/2012/09/yongle.html",
    "row": 523
  },
  {
    "name": "永林牛肉火鍋",
    "rating": "3",
    "hours": "10:00-24:00",
    "row": 524
  },
  {
    "name": "有高級肉",
    "rating": "120",
    "hours": "粒粒分明",
    "row": 525
  },
  {
    "name": "像活力",
    "rating": "東成",
    "hours": "",
    "row": 526
  },
  {
    "name": "醬料多樣",
    "rating": "好",
    "hours": "",
    "row": 527
  },
  {
    "name": "還有豬肉羊肉魚肉燒烤，和菜餐廳牛肉爐一把抓",
    "rating": "704台灣台南市北區東豐路441號(桌球館對面)",
    "hours": "06-209-3462",
    "row": 528
  },
  {
    "name": "鄭土產牛肉湯",
    "rating": "3",
    "hours": "17:30-05:00",
    "row": 532
  },
  {
    "name": "偏淡",
    "rating": "偏硬Q",
    "hours": "120",
    "row": 533
  },
  {
    "name": "像旗哥",
    "rating": "普通",
    "hours": "普通",
    "row": 534
  },
  {
    "name": "中華牛肉湯",
    "rating": "3",
    "hours": "05:30-14:00",
    "row": 535
  },
  {
    "name": "週日到15:00",
    "rating": "週二",
    "hours": "秘方湯頭",
    "row": 537
  },
  {
    "name": "花肉不錯",
    "rating": "60",
    "hours": "",
    "row": 538
  },
  {
    "name": "200",
    "rating": "普通",
    "hours": "不錯",
    "row": 541
  },
  {
    "name": "0935815299",
    "rating": "大",
    "hours": "普通",
    "row": 542
  },
  {
    "name": "中洲寮楊家牛肉湯",
    "rating": "3",
    "hours": "05:30-19:00",
    "row": 543
  },
  {
    "name": "金牛牛肉湯",
    "rating": "3",
    "hours": "04:30-03:00",
    "row": 544
  },
  {
    "name": "金牛牛肉湯",
    "rating": "3",
    "hours": "",
    "row": 545
  },
  {
    "name": "阿春土產牛肉",
    "rating": "2.5",
    "hours": "07:00-18:00",
    "row": 546
  },
  {
    "name": "菜頭湯香甜好喝",
    "rating": "差(中午)",
    "hours": "100",
    "row": 547
  },
  {
    "name": "250",
    "rating": "",
    "hours": "無",
    "row": 550
  },
  {
    "name": "06-5815470",
    "rating": "",
    "hours": "",
    "row": 551
  },
  {
    "name": "阿輝牛肉(東門路)",
    "rating": "2.5",
    "hours": "17:00-03:00",
    "row": 552
  },
  {
    "name": "肉燙久就還好",
    "rating": "好",
    "hours": "",
    "row": 554
  },
  {
    "name": "肉質韌嫩",
    "rating": "普通",
    "hours": "不錯",
    "row": 555
  },
  {
    "name": "老闆娘會問牛肉湯要不要加薑絲XD",
    "rating": "701台灣台南市東區東門路二段308號",
    "hours": "06-2600128",
    "row": 558
  },
  {
    "name": "0930-570-538",
    "rating": "普通",
    "hours": "不便",
    "row": 559
  },
  {
    "name": "阿滿牛肉湯",
    "rating": "2.5",
    "hours": "05:00-20:00",
    "row": 560
  },
  {
    "name": "偏淡",
    "rating": "普通",
    "hours": "普通",
    "row": 561
  },
  {
    "name": "附白飯",
    "rating": "好吃",
    "hours": "鹹肉燥飯",
    "row": 562
  },
  {
    "name": "25年老闆娘在地堅持",
    "rating": "702台灣台南市南區大成路二段31號",
    "hours": "06-2658532",
    "row": 563
  },
  {
    "name": "16:00-21:00 ",
    "rating": "週一",
    "hours": "牛大骨米酒薑絲",
    "row": 566
  },
  {
    "name": "安定市場牛肉羹",
    "rating": "2.5",
    "hours": "06:00-14:00",
    "row": 567
  },
  {
    "name": "鼎品牛肉湯",
    "rating": "2.5",
    "hours": "06:30-15:30(賣完為止)",
    "row": 568
  },
  {
    "name": "牛骨味不顯",
    "rating": "不錯",
    "hours": "",
    "row": 569
  },
  {
    "name": "混花肉",
    "rating": "100附肉燥飯",
    "hours": "普通",
    "row": 570
  },
  {
    "name": "越吃越好吃",
    "rating": "普通",
    "hours": "",
    "row": 571
  },
  {
    "name": "有蔥花豆瓣醬",
    "rating": "普通",
    "hours": "http://beefsouptn.blogspot.tw/2013/11/DingPing.html",
    "row": 572
  },
  {
    "name": "開元路兩撇牛肉湯盤讓，無關係",
    "rating": "701台灣台南市東區東門路三段209號",
    "hours": "06-267-2269",
    "row": 573
  },
  {
    "name": "廟口清燉牛肉麵",
    "rating": "2.5",
    "hours": "10:00-14:00",
    "row": 574
  },
  {
    "name": "老闆堅持自己超細刀工切滷菜，人很多會等很久",
    "rating": "台南市府連路口與樹林街口鐵皮屋(東門圓環府連路口轉進去約100m右手邊，對面是代天府)",
    "hours": "06-2358357",
    "row": 575
  },
  {
    "name": "榮吉牛羊肉專賣店",
    "rating": "2.5",
    "hours": "11:30-14:30",
    "row": 576
  },
  {
    "name": "17:30-22:00",
    "rating": "無",
    "hours": "蔬果薑絲湯頭，牛肉爐型",
    "row": 577
  },
  {
    "name": "很意外Orz",
    "rating": "100",
    "hours": "乾",
    "row": 578
  },
  {
    "name": "上品牛肉湯",
    "rating": "2.5",
    "hours": "11:30-22:00",
    "row": 579
  },
  {
    "name": "台牛牛肉湯",
    "rating": "2.5",
    "hours": "06:00-14:00",
    "row": 581
  },
  {
    "name": "17:00-22:00",
    "rating": "週二",
    "hours": "蔬果湯頭",
    "row": 582
  },
  {
    "name": "旺成牛肉攤",
    "rating": "2.5",
    "hours": "05:30-12:00",
    "row": 583
  },
  {
    "name": "每月X2、X5、X8號",
    "rating": "",
    "hours": "",
    "row": 584
  },
  {
    "name": "信仔牛肉店",
    "rating": "2.5",
    "hours": "07:00-20:00",
    "row": 585
  },
  {
    "name": "忠嫂牛肉湯",
    "rating": "2.5",
    "hours": "17:00-22:00",
    "row": 586
  },
  {
    "name": "花肉頗嫩",
    "rating": "60/100",
    "hours": "偏軟",
    "row": 587
  },
  {
    "name": "網友:炒飯炒麵也推",
    "rating": "701台灣台南市東區仁和路79號",
    "hours": "0929-692948",
    "row": 588
  },
  {
    "name": "長榮牛肉湯",
    "rating": "2",
    "hours": "04:30-中午",
    "row": 589
  },
  {
    "name": "賣完為止",
    "rating": "週二",
    "hours": "清淡",
    "row": 590
  },
  {
    "name": "有洋蔥但來不及補",
    "rating": "701台灣台南市東區長榮路二段88號",
    "hours": "06-2754190",
    "row": 594
  },
  {
    "name": "阿德牛肉湯",
    "rating": "2",
    "hours": "0900-2100?",
    "row": 595
  },
  {
    "name": "越南話菜單",
    "rating": "台南市永康區大武街49號",
    "hours": "06-2526016",
    "row": 596
  },
  {
    "name": "阿和牛肉湯",
    "rating": "2",
    "hours": "06:00-14:00",
    "row": 597
  },
  {
    "name": "17:00-20:30",
    "rating": "",
    "hours": "普通",
    "row": 598
  },
  {
    "name": "崇德牛肉湯(滄瀚畜牧場)",
    "rating": "2",
    "hours": "7:00-13:00",
    "row": 599
  },
  {
    "name": "上肉/花肉/牛腩",
    "rating": "100",
    "hours": "普通",
    "row": 600
  },
  {
    "name": "自家牧場直營(滄瀚畜牧場)",
    "rating": "台南市榮譽街290巷(崇德市場攤位104號)",
    "hours": "06-2606437",
    "row": 601
  },
  {
    "name": "林家牛肉湯(東門路)",
    "rating": "2",
    "hours": "09:00-14:00",
    "row": 602
  },
  {
    "name": "17:00-22:00",
    "rating": "週一晚",
    "hours": "",
    "row": 603
  },
  {
    "name": "週二早",
    "rating": "偏鹹",
    "hours": "較厚有嚼勁",
    "row": 604
  },
  {
    "name": "吃到飽",
    "rating": "普通",
    "hours": "不錯",
    "row": 606
  },
  {
    "name": "0973-665579",
    "rating": "普通",
    "hours": "不便",
    "row": 607
  },
  {
    "name": "牛肉湯(仁和路)",
    "rating": "2",
    "hours": "03:00-13:00",
    "row": 608
  },
  {
    "name": "06-2600093",
    "rating": "普通",
    "hours": "不便",
    "row": 609
  },
  {
    "name": "日日鮮牛肉湯",
    "rating": "2",
    "hours": "06:00-14:00",
    "row": 610
  },
  {
    "name": "偏淡",
    "rating": "肉厚",
    "hours": "",
    "row": 612
  },
  {
    "name": "但量少",
    "rating": "送肉燥飯",
    "hours": "不錯",
    "row": 613
  },
  {
    "name": "附油豆腐",
    "rating": "普通",
    "hours": "普通",
    "row": 614
  },
  {
    "name": "(原在北園街)",
    "rating": "704台灣台南市北區開元路333巷2-23號",
    "hours": "0988-833882",
    "row": 618
  },
  {
    "name": "阿宏牛肉湯(安平)",
    "rating": "1.5",
    "hours": "10:00-22:00",
    "row": 619
  },
  {
    "name": "遇假日順延至禮拜一",
    "rating": "屏東牛雜湯中藥湯頭",
    "hours": "差，太柴",
    "row": 620
  },
  {
    "name": "0960-089-005",
    "rating": "普通，乾淨",
    "hours": "普通",
    "row": 621
  },
  {
    "name": "阿輝牛肉湯",
    "rating": "1.5",
    "hours": "17:00-03:00",
    "row": 622
  },
  {
    "name": "東門牛肉店",
    "rating": "1.5",
    "hours": "9:30-22:30",
    "row": 624
  },
  {
    "name": "厚薄不一",
    "rating": "100",
    "hours": "米粒大小不一",
    "row": 626
  },
  {
    "name": "牛豬羊粥各式料理都有",
    "rating": "701台南市東區東門路二段330號",
    "hours": "06-2684755",
    "row": 627
  },
  {
    "name": "嘉福牛肉湯",
    "rating": "1.5",
    "hours": "06:00-21:00",
    "row": 628
  },
  {
    "name": "花肉/上肉",
    "rating": "100",
    "hours": "普通",
    "row": 629
  },
  {
    "name": "有看到果蠅在佐料區",
    "rating": "期待改進",
    "hours": "701台灣台南市東區崇德路777號",
    "row": 630
  },
  {
    "name": "台灣牛阿輝",
    "rating": "1.5",
    "hours": "11:00-14:00",
    "row": 631
  },
  {
    "name": "17:00-21:50",
    "rating": "每月第1、3週日",
    "hours": "魚湯?",
    "row": 632
  },
  {
    "name": "60",
    "rating": "較差",
    "hours": "鹹的，普通",
    "row": 633
  },
  {
    "name": "06-2023337",
    "rating": "稍大",
    "hours": "普通",
    "row": 634
  },
  {
    "name": "伍佰牛肉湯",
    "rating": "1.5",
    "hours": "11:00-14:00",
    "row": 635
  },
  {
    "name": "17:00-21:00",
    "rating": "",
    "hours": "",
    "row": 636
  },
  {
    "name": "圓元鮮牛肉湯",
    "rating": "1.5",
    "hours": "11:30-2230",
    "row": 637
  },
  {
    "name": "(常到20:30)",
    "rating": "",
    "hours": "偏甜",
    "row": 638
  },
  {
    "name": "蔡董牛肉湯",
    "rating": "1",
    "hours": "05:00-",
    "row": 639
  },
  {
    "name": "100",
    "rating": "差",
    "hours": "差",
    "row": 640
  },
  {
    "name": "好記牛肉湯",
    "rating": "1",
    "hours": "24HR",
    "row": 641
  },
  {
    "name": "台南大飯店1F",
    "rating": "1",
    "hours": "早餐/午餐",
    "row": 642
  },
  {
    "name": "下午茶/晚餐",
    "rating": "無",
    "hours": "差",
    "row": 643
  },
  {
    "name": "台灣牛肉美食創意坊(善化酒廠)",
    "rating": "1",
    "hours": "10:00-21:30",
    "row": 644
  },
  {
    "name": "↓尚未評鑑↓",
    "rating": "0",
    "hours": "↓尚未評鑑↓",
    "row": 645
  },
  {
    "name": "258牛肉湯",
    "rating": "",
    "hours": "07:00-11:00",
    "row": 646
  },
  {
    "name": "每月X2、X5、X8號",
    "rating": "",
    "hours": "",
    "row": 647
  },
  {
    "name": "阿安牛肉湯",
    "rating": "",
    "hours": "04:00-0:00",
    "row": 648
  },
  {
    "name": "阿財牛肉湯(新化)",
    "rating": "",
    "hours": "",
    "row": 649
  },
  {
    "name": "阿財牛肉湯(新市)",
    "rating": "",
    "hours": "",
    "row": 650
  },
  {
    "name": "阿昌牛肉清湯",
    "rating": "",
    "hours": "06:30-14:00",
    "row": 651
  },
  {
    "name": "16:00-19:00",
    "rating": "週二",
    "hours": "",
    "row": 652
  },
  {
    "name": "阿昌牛肉湯(大灣)",
    "rating": "",
    "hours": "06:00-12:00",
    "row": 653
  },
  {
    "name": "19:00-00:00",
    "rating": "",
    "hours": "",
    "row": 654
  },
  {
    "name": "阿昌牛肉湯(關廟)",
    "rating": "",
    "hours": "週一",
    "row": 655
  },
  {
    "name": "16:00-20:30",
    "rating": "",
    "hours": "",
    "row": 661
  },
  {
    "name": "0929207728",
    "rating": "",
    "hours": "",
    "row": 663
  },
  {
    "name": "阿丁牛肉湯",
    "rating": "",
    "hours": "",
    "row": 664
  },
  {
    "name": "阿和牛肉湯(仁德店)",
    "rating": "",
    "hours": "06:00-14:00",
    "row": 665
  },
  {
    "name": "阿慧牛肉湯",
    "rating": "",
    "hours": "",
    "row": 666
  },
  {
    "name": "阿吉牛肉湯",
    "rating": "",
    "hours": "",
    "row": 667
  },
  {
    "name": "阿蘭牛肉湯",
    "rating": "",
    "hours": "",
    "row": 668
  },
  {
    "name": "阿蓮牛肉湯",
    "rating": "",
    "hours": "",
    "row": 669
  },
  {
    "name": "阿蓮牛肉湯(大智路)",
    "rating": "",
    "hours": "05:00-13:00",
    "row": 670
  },
  {
    "name": "17:00-21:00",
    "rating": "週二",
    "hours": "",
    "row": 671
  },
  {
    "name": "0929-392396",
    "rating": "",
    "hours": "",
    "row": 672
  },
  {
    "name": "阿男牛肉湯",
    "rating": "",
    "hours": "06:00-14:00",
    "row": 673
  },
  {
    "name": "17:00-21:30",
    "rating": "",
    "hours": "",
    "row": 674
  },
  {
    "name": "阿牛仔牛肉湯(兵仔市)",
    "rating": "",
    "hours": "",
    "row": 675
  },
  {
    "name": "阿牛仔牛肉湯(大灣分店)",
    "rating": "",
    "hours": "05:30-14:00",
    "row": 676
  },
  {
    "name": "阿全牛肉湯",
    "rating": "",
    "hours": "05:00-13:00",
    "row": 677
  },
  {
    "name": "阿仁牛肉湯",
    "rating": "",
    "hours": "17:00-20:00",
    "row": 678
  },
  {
    "name": "阿榮牛肉湯 (新市分店)",
    "rating": "",
    "hours": "07:00-14:00 17:00-21:00",
    "row": 680
  },
  {
    "name": "阿賢牛肉湯",
    "rating": "",
    "hours": "3:30-13:30",
    "row": 681
  },
  {
    "name": "阿賢牛肉湯(歸仁)",
    "rating": "",
    "hours": "06:00-14:00",
    "row": 684
  },
  {
    "name": "17:00-20:30",
    "rating": "",
    "hours": "",
    "row": 685
  },
  {
    "name": "阿雄牛肉湯",
    "rating": "",
    "hours": "",
    "row": 686
  },
  {
    "name": "阿修牛肉湯",
    "rating": "",
    "hours": "",
    "row": 687
  },
  {
    "name": "阿益牛肉湯",
    "rating": "",
    "hours": "11:00-21:00",
    "row": 688
  },
  {
    "name": "阿眞牛肉湯",
    "rating": "",
    "hours": "",
    "row": 689
  },
  {
    "name": "阿志牛肉",
    "rating": "",
    "hours": "",
    "row": 690
  },
  {
    "name": "阿忠現宰牛肉",
    "rating": "",
    "hours": "",
    "row": 691
  },
  {
    "name": "阿州現宰牛肉湯",
    "rating": "",
    "hours": "",
    "row": 692
  },
  {
    "name": "阿洲牛肉湯",
    "rating": "",
    "hours": "",
    "row": 693
  },
  {
    "name": "愛旺牛肉湯",
    "rating": "",
    "hours": "05:00-14:00",
    "row": 694
  },
  {
    "name": "安吉牛肉湯",
    "rating": "",
    "hours": "",
    "row": 695
  },
  {
    "name": "達人Chun-Yu: 像阿村",
    "rating": "",
    "hours": "",
    "row": 696
  },
  {
    "name": "安仔牛肉店(新市)",
    "rating": "",
    "hours": "11:00-14:00",
    "row": 697
  },
  {
    "name": "17:00-21:00",
    "rating": "週一",
    "hours": "",
    "row": 698
  },
  {
    "name": "半舍牛肉湯",
    "rating": "",
    "hours": "06:00-14:00",
    "row": 699
  },
  {
    "name": "15:00-20:00",
    "rating": "週一晚",
    "hours": "",
    "row": 700
  },
  {
    "name": "週二",
    "rating": "",
    "hours": "",
    "row": 701
  },
  {
    "name": "北保牛肉湯",
    "rating": "",
    "hours": "06:30-賣完為止",
    "row": 702
  },
  {
    "name": "昌牛肉湯",
    "rating": "",
    "hours": "05:00-",
    "row": 703
  },
  {
    "name": "陳家牛肉湯(海佃路)",
    "rating": "",
    "hours": "01:00-13:00",
    "row": 704
  },
  {
    "name": "(原阿牛仔牛肉湯(仁德分店))",
    "rating": "",
    "hours": "",
    "row": 706
  },
  {
    "name": "炊牛牛肉店",
    "rating": "",
    "hours": "9:30-20:00",
    "row": 707
  },
  {
    "name": "大廚牛肉湯",
    "rating": "",
    "hours": "06:00-13:30 17:00-20:30",
    "row": 708
  },
  {
    "name": "大牛牛肉湯",
    "rating": "",
    "hours": "",
    "row": 709
  },
  {
    "name": "大碗公牛肉專賣店",
    "rating": "",
    "hours": "08:00-22:00",
    "row": 710
  },
  {
    "name": "0935981751",
    "rating": "",
    "hours": "",
    "row": 711
  },
  {
    "name": "大億麗緻(共同市場歐亞自助餐廳)",
    "rating": "",
    "hours": "周一~周日早餐06:30-10:00",
    "row": 712
  },
  {
    "name": "周五~周日晚餐17:30-21:00",
    "rating": "",
    "hours": "",
    "row": 716
  },
  {
    "name": "萣祥牛肉湯灣裡店",
    "rating": "",
    "hours": "",
    "row": 717
  },
  {
    "name": "方佳牛肉湯",
    "rating": "",
    "hours": "",
    "row": 718
  },
  {
    "name": "福隆牛什湯",
    "rating": "",
    "hours": "7:30-14:00",
    "row": 719
  },
  {
    "name": "16:30-20:00",
    "rating": "週二",
    "hours": "",
    "row": 720
  },
  {
    "name": "0937305266",
    "rating": "",
    "hours": "",
    "row": 721
  },
  {
    "name": "福牛肉",
    "rating": "",
    "hours": "",
    "row": 722
  },
  {
    "name": "0934-305-511",
    "rating": "",
    "hours": "",
    "row": 723
  },
  {
    "name": "復國牛肉湯/火鍋",
    "rating": "",
    "hours": "",
    "row": 724
  },
  {
    "name": "港口牛肉湯",
    "rating": "",
    "hours": "06:00-15:30",
    "row": 726
  },
  {
    "name": "漢來海港台南店(南紡夢時代)",
    "rating": "",
    "hours": "11:30-14:00",
    "row": 727
  },
  {
    "name": "17:30-21:30",
    "rating": "",
    "hours": "",
    "row": 729
  },
  {
    "name": "溫體牛肉吃到飽",
    "rating": "台南市東區中華東路1段366號",
    "hours": "",
    "row": 730
  },
  {
    "name": "和億牛肉湯",
    "rating": "",
    "hours": "",
    "row": 731
  },
  {
    "name": "鬍鬚蔡牛肉湯",
    "rating": "",
    "hours": "",
    "row": 732
  },
  {
    "name": "花園夜市牛肉湯",
    "rating": "",
    "hours": "",
    "row": 733
  },
  {
    "name": "佳津牛肉湯",
    "rating": "",
    "hours": "09:00-14:00",
    "row": 734
  },
  {
    "name": "16:30-20:00",
    "rating": "週二",
    "hours": "",
    "row": 735
  },
  {
    "name": "佳楷牛肉爐",
    "rating": "",
    "hours": "11:30 - 14:30",
    "row": 736
  },
  {
    "name": "16:00 - 22:00",
    "rating": "",
    "hours": "",
    "row": 737
  },
  {
    "name": "嘉南鮮牛肉湯",
    "rating": "",
    "hours": "06:00-售完為止",
    "row": 739
  },
  {
    "name": "晶英酒店(晶英軒牛肉火鍋)",
    "rating": "",
    "hours": "11:30-14:00",
    "row": 740
  },
  {
    "name": "17:30-21:30",
    "rating": "",
    "hours": "",
    "row": 741
  },
  {
    "name": "老徐牛肉湯",
    "rating": "",
    "hours": "06:00-14:00",
    "row": 742
  },
  {
    "name": "16:00-22:00",
    "rating": "週二",
    "hours": "",
    "row": 743
  },
  {
    "name": "連長牛肉店",
    "rating": "",
    "hours": "09:30-20:00",
    "row": 744
  },
  {
    "name": "06-5815470",
    "rating": "",
    "hours": "",
    "row": 745
  },
  {
    "name": "林.味軒牛肉湯",
    "rating": "",
    "hours": "06:30-16:00",
    "row": 746
  },
  {
    "name": "劉哥牛肉湯長榮店",
    "rating": "",
    "hours": "06:00-14:00",
    "row": 747
  },
  {
    "name": "17:00-22:00",
    "rating": "",
    "hours": "",
    "row": 748
  },
  {
    "name": "台南市台南市長榮路五段460號",
    "rating": "06 252 8889",
    "hours": "",
    "row": 749
  },
  {
    "name": "劉哥牛肉湯東寧店",
    "rating": "",
    "hours": "24HR",
    "row": 750
  },
  {
    "name": "劉哥牛肉湯(北海店)",
    "rating": "",
    "hours": "11:00-03:00",
    "row": 751
  },
  {
    "name": "劉哥牛肉湯北安店",
    "rating": "",
    "hours": "?",
    "row": 752
  },
  {
    "name": "劉哥牛肉湯大東夜市",
    "rating": "",
    "hours": "",
    "row": 753
  },
  {
    "name": "劉哥牛肉湯花園夜市",
    "rating": "",
    "hours": "",
    "row": 754
  },
  {
    "name": "麻豆阿榮安定分店 - 阿育牛肉湯",
    "rating": "",
    "hours": "12:00-20:00(?)",
    "row": 755
  },
  {
    "name": "蠻牛現宰牛肉",
    "rating": "",
    "hours": "平日",
    "row": 756
  },
  {
    "name": "10:00-0:00",
    "rating": "週一",
    "hours": "",
    "row": 759
  },
  {
    "name": "茂記長江牛肉湯",
    "rating": "",
    "hours": "12:00-14:00",
    "row": 760
  },
  {
    "name": "17:00-23:00",
    "rating": "週一週二",
    "hours": "",
    "row": 761
  },
  {
    "name": "梅蘭牛肉湯",
    "rating": "",
    "hours": "",
    "row": 762
  },
  {
    "name": "妙味牛肉湯",
    "rating": "",
    "hours": "06:00-",
    "row": 763
  },
  {
    "name": "(大約)",
    "rating": "",
    "hours": "",
    "row": 764
  },
  {
    "name": "牧庒牛肉湯",
    "rating": "",
    "hours": "",
    "row": 765
  },
  {
    "name": "牛大牛肉湯",
    "rating": "",
    "hours": "11:00-23:00",
    "row": 766
  },
  {
    "name": "牛肉場",
    "rating": "",
    "hours": "",
    "row": 767
  },
  {
    "name": "牛肉料理(店名不確定)",
    "rating": "",
    "hours": "?",
    "row": 768
  },
  {
    "name": "牛肉湯",
    "rating": "",
    "hours": "早上",
    "row": 769
  },
  {
    "name": "牛肉湯",
    "rating": "",
    "hours": "",
    "row": 770
  },
  {
    "name": "牛肉湯(嘉藥對面巷子)",
    "rating": "",
    "hours": "",
    "row": 771
  },
  {
    "name": "牛肉湯(南區)",
    "rating": "",
    "hours": "",
    "row": 772
  },
  {
    "name": "牛舍牛肉湯",
    "rating": "",
    "hours": "",
    "row": 773
  },
  {
    "name": "06-590-8778",
    "rating": "",
    "hours": "",
    "row": 774
  },
  {
    "name": "牛舍牛肉湯(關廟)",
    "rating": "",
    "hours": "",
    "row": 775
  },
  {
    "name": "牛屋牛肉湯",
    "rating": "",
    "hours": "",
    "row": 776
  },
  {
    "name": "牛之屋(六甲)",
    "rating": "",
    "hours": "06:00-14:00",
    "row": 777
  },
  {
    "name": "牛之屋(新營)",
    "rating": "",
    "hours": "",
    "row": 778
  },
  {
    "name": "牛庄牛肉湯",
    "rating": "",
    "hours": "05:30-22:00",
    "row": 779
  },
  {
    "name": "http://tw.myblog.yahoo.com/small0080/article?mid=12586",
    "rating": "台南市安南區安吉路一段226-1號",
    "hours": "06-2476393",
    "row": 780
  },
  {
    "name": "0937-697-667",
    "rating": "",
    "hours": "",
    "row": 781
  },
  {
    "name": "牛仔牛肉湯",
    "rating": "",
    "hours": "",
    "row": 782
  },
  {
    "name": "七股國姓橋下ㄟ牛肉湯",
    "rating": "",
    "hours": "",
    "row": 783
  },
  {
    "name": "啟宏牛肉湯",
    "rating": "",
    "hours": "06:00-13:00",
    "row": 784
  },
  {
    "name": "強哥牛肉湯",
    "rating": "",
    "hours": "",
    "row": 785
  },
  {
    "name": "日日新牛肉湯",
    "rating": "",
    "hours": "06:00-14:00",
    "row": 786
  },
  {
    "name": "肉哥牛肉湯",
    "rating": "",
    "hours": "",
    "row": 787
  },
  {
    "name": "如億牛肉湯(大灣路",
    "rating": "",
    "hours": "",
    "row": 788
  },
  {
    "name": "三泰牛肉湯",
    "rating": "",
    "hours": "10:30-23:30",
    "row": 789
  },
  {
    "name": "善化福勝牛肉湯",
    "rating": "",
    "hours": "10:00-14:30   16:30-21:00",
    "row": 790
  },
  {
    "name": "善化牛肉湯",
    "rating": "",
    "hours": "",
    "row": 791
  },
  {
    "name": "上好記牛肉湯(仁德)",
    "rating": "",
    "hours": "",
    "row": 792
  },
  {
    "name": "上好牛肉湯",
    "rating": "",
    "hours": "06:00-13:00",
    "row": 793
  },
  {
    "name": "17:00-21:30",
    "rating": "週二",
    "hours": "",
    "row": 794
  },
  {
    "name": "上讚牛肉湯",
    "rating": "",
    "hours": "",
    "row": 795
  },
  {
    "name": "順德牛肉湯",
    "rating": "",
    "hours": "06:00-15:00",
    "row": 796
  },
  {
    "name": "https://www.facebook.com/pages/%E9%A0%86%E5%BE%B7%E7%89%9B%E8%82%89%E6%B9%AF/469606753106538",
    "rating": "台南市學甲區民權路59號",
    "hours": "06-782-0161",
    "row": 800
  },
  {
    "name": "台南市善化肉品市場販賣部",
    "rating": "",
    "hours": "09:00-19:00",
    "row": 801
  },
  {
    "name": "16:00-22:30",
    "rating": "",
    "hours": "",
    "row": 804
  },
  {
    "name": "台牛牛肉湯(開元路)",
    "rating": "",
    "hours": "週一~週五",
    "row": 805
  },
  {
    "name": "16:00-01:00",
    "rating": "週一",
    "hours": "",
    "row": 809
  },
  {
    "name": "台灣牛牛肉湯(玉井)",
    "rating": "",
    "hours": "",
    "row": 810
  },
  {
    "name": "太子路土產牛肉",
    "rating": "",
    "hours": "早上？",
    "row": 811
  },
  {
    "name": "田園牛肉湯",
    "rating": "",
    "hours": "10:00-21:00",
    "row": 812
  },
  {
    "name": "土牛牛肉湯",
    "rating": "",
    "hours": "12:00-14:00 17:00-21:30",
    "row": 813
  },
  {
    "name": "萬福牛肉",
    "rating": "",
    "hours": "\t11:30–14:00",
    "row": 814
  },
  {
    "name": "17:00–21:00",
    "rating": "",
    "hours": "",
    "row": 815
  },
  {
    "name": "味軒牛肉湯",
    "rating": "",
    "hours": "09:00-23:00",
    "row": 816
  },
  {
    "name": "下營青牛莊牛肉湯",
    "rating": "",
    "hours": "",
    "row": 817
  },
  {
    "name": "鮮牛肉湯",
    "rating": "",
    "hours": "06:30-1400 17:00-20:00",
    "row": 818
  },
  {
    "name": "香辰牛肉湯",
    "rating": "",
    "hours": "",
    "row": 819
  },
  {
    "name": "新市-香味屋牛肉湯",
    "rating": "",
    "hours": "09:30-",
    "row": 822
  },
  {
    "name": "新市楊記牛肉湯",
    "rating": "",
    "hours": "",
    "row": 823
  },
  {
    "name": "新喜牛肉湯",
    "rating": "",
    "hours": "",
    "row": 824
  },
  {
    "name": "薪苺牛肉湯",
    "rating": "",
    "hours": "",
    "row": 825
  },
  {
    "name": "雄牛肉湯",
    "rating": "",
    "hours": "07:00-賣完為止(?)",
    "row": 826
  },
  {
    "name": "學甲信宏牛肉湯",
    "rating": "",
    "hours": "11:00-21:00(大概)",
    "row": 827
  },
  {
    "name": "意林牛肉湯",
    "rating": "",
    "hours": "08:00-14:00",
    "row": 828
  },
  {
    "name": "16:30-20:00",
    "rating": "",
    "hours": "",
    "row": 829
  },
  {
    "name": "他的牛腩湯好吃肉燥飯吃免費的爾且店舖裡很乾淨 ",
    "rating": "720台灣台南市官田區中山路一段142號",
    "hours": "06-6899910",
    "row": 830
  },
  {
    "name": "06-6899913",
    "rating": "",
    "hours": "",
    "row": 831
  },
  {
    "name": "宜美牛肉湯",
    "rating": "",
    "hours": "06:00-14:00",
    "row": 832
  },
  {
    "name": "永浤土產牛肉清湯",
    "rating": "",
    "hours": "17:00-04:00",
    "row": 834
  },
  {
    "name": "永吉牛肉湯",
    "rating": "",
    "hours": "07:00-賣完為止(?)",
    "row": 835
  },
  {
    "name": "是我吃過很超讚的!",
    "rating": "台南市安南區安中路一段773號",
    "hours": "06-2455383",
    "row": 837
  },
  {
    "name": "育家餐館 新鮮牛肉湯",
    "rating": "",
    "hours": "06:00-13:00",
    "row": 838
  },
  {
    "name": "06-2451931",
    "rating": "",
    "hours": "",
    "row": 839
  },
  {
    "name": "早安牛肉湯美食館(原牛媽媽)",
    "rating": "",
    "hours": "10:00-21:30",
    "row": 840
  },
  {
    "name": "珍好味牛肉莊",
    "rating": "",
    "hours": "",
    "row": 841
  },
  {
    "name": "正庄牛肉湯",
    "rating": "",
    "hours": "",
    "row": 842
  },
  {
    "name": "中山路牛肉湯",
    "rating": "",
    "hours": "",
    "row": 843
  },
  {
    "name": "中州寮阿美牛肉湯",
    "rating": "",
    "hours": "06:00-21:50",
    "row": 844
  },
  {
    "name": "總鋪師牛肉湯",
    "rating": "",
    "hours": "早上",
    "row": 845
  },
  {
    "name": "足水牛肉湯軟骨肉",
    "rating": "",
    "hours": "07:00-18:30",
    "row": 846
  },
  {
    "name": "(舊小東牛肉位置)",
    "rating": "701台灣台南市東區裕農路610號",
    "hours": "0921-293044",
    "row": 847
  },
  {
    "name": "ㄚ得牛肉清湯",
    "rating": "",
    "hours": "10:00-14:00",
    "row": 848
  },
  {
    "name": "16:30-22:30",
    "rating": "",
    "hours": "",
    "row": 849
  },
  {
    "name": "二牛牛肉湯、億哥牛肉湯(安平店)",
    "rating": "",
    "hours": "05:30-01:00",
    "row": 850
  },
  {
    "name": "憨牛牛肉湯",
    "rating": "",
    "hours": "05:00-14:00",
    "row": 851
  },
  {
    "name": "麻豆牛家莊",
    "rating": "",
    "hours": "",
    "row": 852
  }
]